{
  "type": "FeatureCollection",
  "generator": "overpass-turbo",
  "copyright": "The data included in this document is from www.openstreetmap.org. The data is made available under ODbL.",
  "timestamp": "2026-05-06T14:48:15Z",
  "features": [
    {
      "type": "Feature",
      "properties": {
        "@id": "node/497256257",
        "capacity": "34",
        "ele": "1505",
        "mobile": "+34669757266",
        "name": "Refugi del Serrat de les Esposes",
        "name:ca": "Refugi del Serrat de les Esposes",
        "operator": "Federació d'Entitats Excursionistes de Catalunya",
        "ref:FR:pyrenees_refuges": "1588",
        "tourism": "alpine_hut",
        "wikidata": "Q18007914",
        "wikipedia": "ca:Refugi del Serrat de les Esposes"
      },
      "geometry": {
        "type": "Point",
        "coordinates": [
          1.8287832,
          42.3250417
        ]
      },
      "id": "node/497256257"
    },
    {
      "type": "Feature",
      "properties": {
        "@id": "node/506075082",
        "name": "Gite d'Aunac",
        "ref:refuges.info": "10767",
        "tourism": "alpine_hut"
      },
      "geometry": {
        "type": "Point",
        "coordinates": [
          1.1744483,
          42.8511821
        ]
      },
      "id": "node/506075082"
    },
    {
      "type": "Feature",
      "properties": {
        "@id": "node/513063520",
        "amenity": "shelter",
        "historic": "ruins",
        "name": "Grange de Campis",
        "note:fr": "Ruine de cabane"
      },
      "geometry": {
        "type": "Point",
        "coordinates": [
          1.8191488,
          42.8692928
        ]
      },
      "id": "node/513063520"
    },
    {
      "type": "Feature",
      "properties": {
        "@id": "node/513372388",
        "amenity": "shelter"
      },
      "geometry": {
        "type": "Point",
        "coordinates": [
          1.7821184,
          42.843802
        ]
      },
      "id": "node/513372388"
    },
    {
      "type": "Feature",
      "properties": {
        "@id": "node/519720623",
        "capacity": "4",
        "description": "2021-10 : Refuge ouvert, partie ONF fermée Table, bancs, cheminée, bat flanc superposé (2 X 2) sans matelas. Eau devant le refuge clôturé avec possibilité de camper.",
        "ele": "1183",
        "fireplace": "yes",
        "name": "Refuge forestier de la Mouline",
        "ref:refuges.info": "5047",
        "stove": "no",
        "tourism": "wilderness_hut"
      },
      "geometry": {
        "type": "Point",
        "coordinates": [
          2.4902026,
          42.550613
        ]
      },
      "id": "node/519720623"
    },
    {
      "type": "Feature",
      "properties": {
        "@id": "node/527834300",
        "name": "Refuge des Estanyols",
        "ref:FR:pyrenees_refuges": "1487",
        "tourism": "alpine_hut"
      },
      "geometry": {
        "type": "Point",
        "coordinates": [
          2.1647298,
          42.6257067
        ]
      },
      "id": "node/527834300"
    },
    {
      "type": "Feature",
      "properties": {
        "@id": "node/536431788",
        "amenity": "shelter"
      },
      "geometry": {
        "type": "Point",
        "coordinates": [
          2.173113,
          42.4416595
        ]
      },
      "id": "node/536431788"
    },
    {
      "type": "Feature",
      "properties": {
        "@id": "node/536431923",
        "amenity": "shelter",
        "name": "La Barraque de l'Orri"
      },
      "geometry": {
        "type": "Point",
        "coordinates": [
          2.174477,
          42.4585804
        ]
      },
      "id": "node/536431923"
    },
    {
      "type": "Feature",
      "properties": {
        "@id": "node/536431939",
        "capacity": "8",
        "description": "2020-01 : Refuge non gardé dont la moitié est occupée par un berger en saison Couchage sur bas-flancs (2*4) Pièce séparée pour réserve de bois",
        "ele": "1810",
        "fireplace": "yes",
        "name": "Cabane de l'Orry",
        "ref:FR:pyrenees_refuges": "689",
        "ref:refuges.info": "6851",
        "stove": "no",
        "tourism": "wilderness_hut"
      },
      "geometry": {
        "type": "Point",
        "coordinates": [
          2.1756704,
          42.4606413
        ]
      },
      "id": "node/536431939"
    },
    {
      "type": "Feature",
      "properties": {
        "@id": "node/553293605",
        "amenity": "shelter",
        "construction": "man_made",
        "fireplace": "yes"
      },
      "geometry": {
        "type": "Point",
        "coordinates": [
          -0.0376786,
          42.4077566
        ]
      },
      "id": "node/553293605"
    },
    {
      "type": "Feature",
      "properties": {
        "@id": "node/587688973",
        "amenity": "shelter",
        "name": "Maison Forestière de Founguéré"
      },
      "geometry": {
        "type": "Point",
        "coordinates": [
          2.326586,
          42.5216559
        ]
      },
      "id": "node/587688973"
    },
    {
      "type": "Feature",
      "properties": {
        "@id": "node/590067790",
        "amenity": "shelter",
        "created_by": "iLOE 1.8"
      },
      "geometry": {
        "type": "Point",
        "coordinates": [
          2.4339755,
          42.6001417
        ]
      },
      "id": "node/590067790"
    },
    {
      "type": "Feature",
      "properties": {
        "@id": "node/605643071",
        "amenity": "shelter",
        "beds": "6",
        "capacity": "6",
        "description": "2021-05 : - Un espace dortoir composé de lits superposés avec matelas et couvertures - table intérieur - tables à pique-nique en extérieur",
        "fireplace": "no",
        "name": "Refuge de l'Abbaye de Saint-Martin du Canigou",
        "ref:refuges.info": "7628",
        "shelter_type": "basic_hut",
        "stove": "no"
      },
      "geometry": {
        "type": "Point",
        "coordinates": [
          2.4017,
          42.5288501
        ]
      },
      "id": "node/605643071"
    },
    {
      "type": "Feature",
      "properties": {
        "@id": "node/633499249",
        "ele": "1522",
        "email": "contact@chaletduclot.fr",
        "name": "Chalet du Clot",
        "phone": "+33 9 70 02 39 32",
        "ref:FR:pyrenees_refuges": "877",
        "ref:refuges.info": "11008",
        "tourism": "alpine_hut"
      },
      "geometry": {
        "type": "Point",
        "coordinates": [
          -0.1472555,
          42.8519137
        ]
      },
      "id": "node/633499249"
    },
    {
      "type": "Feature",
      "properties": {
        "@id": "node/636102753",
        "amenity": "shelter",
        "bench": "yes",
        "name": "Osse",
        "name:oc": "Òussa",
        "shelter_type": "public_transport",
        "source:name:oc": "Lo Congrès"
      },
      "geometry": {
        "type": "Point",
        "coordinates": [
          -0.6092572,
          42.9974895
        ]
      },
      "id": "node/636102753"
    },
    {
      "type": "Feature",
      "properties": {
        "@id": "node/647228709",
        "amenity": "shelter",
        "name": "Cabane Vieille de Saudarie",
        "name:oc": "Capana Vielha de Saudaria",
        "source": "Bing ; survey",
        "source:name:oc": "Lo Congrès"
      },
      "geometry": {
        "type": "Point",
        "coordinates": [
          -0.6495009,
          43.0564458
        ]
      },
      "id": "node/647228709"
    },
    {
      "type": "Feature",
      "properties": {
        "@id": "node/652132460",
        "amenity": "shelter",
        "name": "Cabaña de Cerbillonar",
        "ref:FR:pyrenees_refuges": "1272",
        "tourism": "wilderness_hut"
      },
      "geometry": {
        "type": "Point",
        "coordinates": [
          -0.1526307,
          42.748606
        ]
      },
      "id": "node/652132460"
    },
    {
      "type": "Feature",
      "properties": {
        "@id": "node/652132461",
        "amenity": "shelter",
        "name": "Refugio Arroyetas"
      },
      "geometry": {
        "type": "Point",
        "coordinates": [
          -0.4633355,
          42.7649069
        ]
      },
      "id": "node/652132461"
    },
    {
      "type": "Feature",
      "properties": {
        "@id": "node/659856113",
        "alt_name": "Salle hors-sac",
        "amenity": "shelter",
        "shelter_type": "picnic_shelter"
      },
      "geometry": {
        "type": "Point",
        "coordinates": [
          0.220627,
          42.8285579
        ]
      },
      "id": "node/659856113"
    },
    {
      "type": "Feature",
      "properties": {
        "@id": "node/660448143",
        "amenity": "shelter",
        "ele": "1185",
        "name": "Cabane de Castéruch",
        "name:oc": "Capana deth Castèthruche",
        "source": "survey",
        "source:name:oc": "Lo Congrès"
      },
      "geometry": {
        "type": "Point",
        "coordinates": [
          -0.5852463,
          43.0152067
        ]
      },
      "id": "node/660448143"
    },
    {
      "type": "Feature",
      "properties": {
        "@id": "node/660613454",
        "amenity": "shelter",
        "name": "Cabaña de la Canal de Ip"
      },
      "geometry": {
        "type": "Point",
        "coordinates": [
          -0.4872137,
          42.7297798
        ]
      },
      "id": "node/660613454"
    },
    {
      "type": "Feature",
      "properties": {
        "@id": "node/660613459",
        "amenity": "shelter",
        "name": "Caseta de Icona"
      },
      "geometry": {
        "type": "Point",
        "coordinates": [
          -0.1023532,
          42.6537896
        ]
      },
      "id": "node/660613459"
    },
    {
      "type": "Feature",
      "properties": {
        "@id": "node/662763908",
        "amenity": "shelter",
        "name": "Cabane de Lapassa",
        "name:oc": "Cabana de Lapassar",
        "source:name:oc": "Lo Congrès"
      },
      "geometry": {
        "type": "Point",
        "coordinates": [
          -0.5390133,
          42.9511989
        ]
      },
      "id": "node/662763908"
    },
    {
      "type": "Feature",
      "properties": {
        "@id": "node/662764105",
        "amenity": "shelter",
        "name": "Cabane d'Escurets",
        "name:oc": "Capana d'Escurets",
        "source:name:oc": "Lo Congrès"
      },
      "geometry": {
        "type": "Point",
        "coordinates": [
          -0.5243969,
          42.9523239
        ]
      },
      "id": "node/662764105"
    },
    {
      "type": "Feature",
      "properties": {
        "@id": "node/662899255",
        "amenity": "shelter",
        "name": "Cabane de Bergout",
        "name:oc": "Capana de Bergot",
        "source:name:oc": "Lo Congrès"
      },
      "geometry": {
        "type": "Point",
        "coordinates": [
          -0.5638361,
          42.9770915
        ]
      },
      "id": "node/662899255"
    },
    {
      "type": "Feature",
      "properties": {
        "@id": "node/664702237",
        "amenity": "shelter",
        "description": "en regardant d'ouest en est, vue sur le Cirque de Lescun et la Haute Vallée d'Aspe",
        "information": "map",
        "map_type": "toposcope",
        "name": "Table d'Orientation du Kiosque",
        "name:oc": "Taula d'Orientacion deth Quiòsc",
        "source": "Bing ; knowledge",
        "source:name:oc": "Lo Congrès",
        "tourism": "viewpoint"
      },
      "geometry": {
        "type": "Point",
        "coordinates": [
          -0.6288536,
          42.9358263
        ]
      },
      "id": "node/664702237"
    },
    {
      "type": "Feature",
      "properties": {
        "@id": "node/666819668",
        "capacity": "47",
        "ele": "1984.8",
        "name": "Refugi d'Estany Llong",
        "name:ca": "Refugi d'Estany Llong",
        "phone": "+34 973299545",
        "tourism": "alpine_hut",
        "wikidata": "Q17603174",
        "wikipedia": "ca:Refugi d'Estany Llong"
      },
      "geometry": {
        "type": "Point",
        "coordinates": [
          0.942367,
          42.5725909
        ]
      },
      "id": "node/666819668"
    },
    {
      "type": "Feature",
      "properties": {
        "@id": "node/669919828",
        "internet_access": "wlan",
        "name": "Gîte d'Etape de Lhers",
        "tourism": "alpine_hut"
      },
      "geometry": {
        "type": "Point",
        "coordinates": [
          -0.6190864,
          42.9105258
        ]
      },
      "id": "node/669919828"
    },
    {
      "type": "Feature",
      "properties": {
        "@id": "node/670955112",
        "amenity": "shelter"
      },
      "geometry": {
        "type": "Point",
        "coordinates": [
          0.0194033,
          42.3927073
        ]
      },
      "id": "node/670955112"
    },
    {
      "type": "Feature",
      "properties": {
        "@id": "node/694534759",
        "amenity": "shelter",
        "name": "Cabanes de Narbèze",
        "name:oc": "Capanas de N'Arbesa",
        "source:name:oc": "Lo Congrès"
      },
      "geometry": {
        "type": "Point",
        "coordinates": [
          -0.5494686,
          42.9361029
        ]
      },
      "id": "node/694534759"
    },
    {
      "type": "Feature",
      "properties": {
        "@id": "node/696898739",
        "amenity": "shelter"
      },
      "geometry": {
        "type": "Point",
        "coordinates": [
          -1.7918611,
          42.3363257
        ]
      },
      "id": "node/696898739"
    },
    {
      "type": "Feature",
      "properties": {
        "@id": "node/700890981",
        "amenity": "shelter"
      },
      "geometry": {
        "type": "Point",
        "coordinates": [
          -0.5116509,
          42.8950861
        ]
      },
      "id": "node/700890981"
    },
    {
      "type": "Feature",
      "properties": {
        "@id": "node/700891139",
        "amenity": "shelter"
      },
      "geometry": {
        "type": "Point",
        "coordinates": [
          -0.5078276,
          42.8994685
        ]
      },
      "id": "node/700891139"
    },
    {
      "type": "Feature",
      "properties": {
        "@id": "node/700891170",
        "amenity": "shelter",
        "name": "Cabane de Licoué",
        "name:oc": "Capana de Licoué",
        "source:name:oc": "Lo Congrès"
      },
      "geometry": {
        "type": "Point",
        "coordinates": [
          -0.5274667,
          42.9019129
        ]
      },
      "id": "node/700891170"
    },
    {
      "type": "Feature",
      "properties": {
        "@id": "node/705472454",
        "amenity": "shelter",
        "fireplace": "yes",
        "name": "Refuge des Corrals"
      },
      "geometry": {
        "type": "Point",
        "coordinates": [
          2.183742,
          42.5202273
        ]
      },
      "id": "node/705472454"
    },
    {
      "type": "Feature",
      "properties": {
        "@id": "node/724439532",
        "amenity": "shelter",
        "name": "Cabane d'Escouret",
        "name:oc": "Capana d'Escorret",
        "source:name:oc": "Lo Congrès"
      },
      "geometry": {
        "type": "Point",
        "coordinates": [
          -0.5591138,
          42.8027161
        ]
      },
      "id": "node/724439532"
    },
    {
      "type": "Feature",
      "properties": {
        "@id": "node/724440311",
        "amenity": "shelter",
        "name": "Cabane d'Anglus",
        "name:oc": "Capana d'Anglús",
        "source:name:oc": "Lo Congrès"
      },
      "geometry": {
        "type": "Point",
        "coordinates": [
          -0.5617729,
          42.8116654
        ]
      },
      "id": "node/724440311"
    },
    {
      "type": "Feature",
      "properties": {
        "@id": "node/725549578",
        "amenity": "shelter",
        "name": "Refugio de Plana de Diego"
      },
      "geometry": {
        "type": "Point",
        "coordinates": [
          -0.7733209,
          42.8826899
        ]
      },
      "id": "node/725549578"
    },
    {
      "type": "Feature",
      "properties": {
        "@id": "node/725549740",
        "amenity": "shelter",
        "name": "Abrigo forestal de Linza",
        "website": "https://www.pyrenees-refuges.com/fr/affiche.php?numenr=1640"
      },
      "geometry": {
        "type": "Point",
        "coordinates": [
          -0.7968522,
          42.8969616
        ]
      },
      "id": "node/725549740"
    },
    {
      "type": "Feature",
      "properties": {
        "@id": "node/726569871",
        "amenity": "shelter",
        "name": "Refugio de Dios Te Salve"
      },
      "geometry": {
        "type": "Point",
        "coordinates": [
          -0.6854077,
          42.7841993
        ]
      },
      "id": "node/726569871"
    },
    {
      "type": "Feature",
      "properties": {
        "@id": "node/726573774",
        "amenity": "shelter",
        "name": "Refugio de Alano"
      },
      "geometry": {
        "type": "Point",
        "coordinates": [
          -0.7832698,
          42.8329457
        ]
      },
      "id": "node/726573774"
    },
    {
      "type": "Feature",
      "properties": {
        "@id": "node/726574371",
        "amenity": "shelter",
        "name": "Borda Chilburo"
      },
      "geometry": {
        "type": "Point",
        "coordinates": [
          -0.7503495,
          42.8055763
        ]
      },
      "id": "node/726574371"
    },
    {
      "type": "Feature",
      "properties": {
        "@id": "node/726577658",
        "amenity": "shelter",
        "name": "Refugio de lo Foratón"
      },
      "geometry": {
        "type": "Point",
        "coordinates": [
          -0.6604306,
          42.780422
        ]
      },
      "id": "node/726577658"
    },
    {
      "type": "Feature",
      "properties": {
        "@id": "node/726633985",
        "amenity": "shelter"
      },
      "geometry": {
        "type": "Point",
        "coordinates": [
          2.3675203,
          42.6201783
        ]
      },
      "id": "node/726633985"
    },
    {
      "type": "Feature",
      "properties": {
        "@id": "node/741170328",
        "amenity": "shelter"
      },
      "geometry": {
        "type": "Point",
        "coordinates": [
          2.3287422,
          42.5312373
        ]
      },
      "id": "node/741170328"
    },
    {
      "type": "Feature",
      "properties": {
        "@id": "node/763491846",
        "amenity": "shelter"
      },
      "geometry": {
        "type": "Point",
        "coordinates": [
          2.449674,
          42.5654623
        ]
      },
      "id": "node/763491846"
    },
    {
      "type": "Feature",
      "properties": {
        "@id": "node/763491987",
        "amenity": "shelter"
      },
      "geometry": {
        "type": "Point",
        "coordinates": [
          2.4495331,
          42.5655409
        ]
      },
      "id": "node/763491987"
    },
    {
      "type": "Feature",
      "properties": {
        "@id": "node/763492182",
        "amenity": "shelter"
      },
      "geometry": {
        "type": "Point",
        "coordinates": [
          2.4498458,
          42.565211
        ]
      },
      "id": "node/763492182"
    },
    {
      "type": "Feature",
      "properties": {
        "@id": "node/768026979",
        "amenity": "shelter"
      },
      "geometry": {
        "type": "Point",
        "coordinates": [
          2.3875136,
          42.5763093
        ]
      },
      "id": "node/768026979"
    },
    {
      "type": "Feature",
      "properties": {
        "@id": "node/768027028",
        "amenity": "shelter"
      },
      "geometry": {
        "type": "Point",
        "coordinates": [
          2.3865058,
          42.5745432
        ]
      },
      "id": "node/768027028"
    },
    {
      "type": "Feature",
      "properties": {
        "@id": "node/784572681",
        "amenity": "shelter",
        "capacity": "2",
        "description": "2021-08 : Cabane en pierres sèches et toit végétalisé assez rustique. De la place pour plusieurs personnes assises et 1 ou 2 personnes allongées à l'intérieur. Abri assez sommaire à utiliser plutôt comme dépannage en cas de mauvais temps ou d'imprévu.",
        "ele": "1215",
        "fireplace": "no",
        "name": "Cabane Portella de Dalt",
        "ref:refuges.info": "7858",
        "shelter_type": "weather_shelter",
        "stove": "no"
      },
      "geometry": {
        "type": "Point",
        "coordinates": [
          2.4155749,
          42.5423847
        ]
      },
      "id": "node/784572681"
    },
    {
      "type": "Feature",
      "properties": {
        "@id": "node/803303497",
        "amenity": "shelter"
      },
      "geometry": {
        "type": "Point",
        "coordinates": [
          2.1444005,
          42.5913966
        ]
      },
      "id": "node/803303497"
    },
    {
      "type": "Feature",
      "properties": {
        "@id": "node/807105073",
        "amenity": "shelter",
        "name": "Cabane d'Ance",
        "name:eu": "Arhantzeko etxola",
        "name:oc": "Capana d'Ance",
        "source:name:oc": "Lo Congrès"
      },
      "geometry": {
        "type": "Point",
        "coordinates": [
          -0.7555678,
          42.9776035
        ]
      },
      "id": "node/807105073"
    },
    {
      "type": "Feature",
      "properties": {
        "@id": "node/807105104",
        "amenity": "shelter",
        "name": "Cabane d'Issor",
        "name:eu": "Izorrako etxola",
        "name:oc": "Capana d'Issòr",
        "source:name:oc": "Lo Congrès"
      },
      "geometry": {
        "type": "Point",
        "coordinates": [
          -0.7586655,
          42.975511
        ]
      },
      "id": "node/807105104"
    },
    {
      "type": "Feature",
      "properties": {
        "@id": "node/807105150",
        "amenity": "shelter"
      },
      "geometry": {
        "type": "Point",
        "coordinates": [
          -0.7564232,
          42.9771847
        ]
      },
      "id": "node/807105150"
    },
    {
      "type": "Feature",
      "properties": {
        "@id": "node/807105180",
        "amenity": "shelter",
        "name": "Cabane de La Pierre Saint-Martin",
        "name:eu": "San Martingo Harriko atxola",
        "name:oc": "Capana dera Pèira Sent Martin",
        "source:name:oc": "Lo Congrès"
      },
      "geometry": {
        "type": "Point",
        "coordinates": [
          -0.7494297,
          42.9800148
        ]
      },
      "id": "node/807105180"
    },
    {
      "type": "Feature",
      "properties": {
        "@id": "node/842033589",
        "amenity": "shelter",
        "source": "cadastre-dgi-fr source : Direction Générale des Impôts - Cadastre. Mise à jour : 2010"
      },
      "geometry": {
        "type": "Point",
        "coordinates": [
          0.8666755,
          43.2245282
        ]
      },
      "id": "node/842033589"
    },
    {
      "type": "Feature",
      "properties": {
        "@id": "node/849984228",
        "amenity": "shelter"
      },
      "geometry": {
        "type": "Point",
        "coordinates": [
          2.1507959,
          42.5321196
        ]
      },
      "id": "node/849984228"
    },
    {
      "type": "Feature",
      "properties": {
        "@id": "node/849985012",
        "amenity": "shelter",
        "beds": "0",
        "description": "2014-07 : Ces bâtiments utilisés par l'armée lors des tirs sur le complexe de tir de la Clavéra sont ouverts et ne portent aucun signe distinctif ni interdiction de quelque sorte.",
        "fireplace": "no",
        "name": "Casemate de la Clavéra 1",
        "ref:refuges.info": "4397",
        "shelter_type": "weather_shelter",
        "stove": "no"
      },
      "geometry": {
        "type": "Point",
        "coordinates": [
          2.1557707,
          42.5342689
        ]
      },
      "id": "node/849985012"
    },
    {
      "type": "Feature",
      "properties": {
        "@id": "node/849985323",
        "amenity": "shelter"
      },
      "geometry": {
        "type": "Point",
        "coordinates": [
          2.1544471,
          42.5279303
        ]
      },
      "id": "node/849985323"
    },
    {
      "type": "Feature",
      "properties": {
        "@id": "node/849985690",
        "amenity": "shelter"
      },
      "geometry": {
        "type": "Point",
        "coordinates": [
          2.1510893,
          42.5320012
        ]
      },
      "id": "node/849985690"
    },
    {
      "type": "Feature",
      "properties": {
        "@id": "node/850007810",
        "amenity": "shelter"
      },
      "geometry": {
        "type": "Point",
        "coordinates": [
          2.1505882,
          42.5304924
        ]
      },
      "id": "node/850007810"
    },
    {
      "type": "Feature",
      "properties": {
        "@id": "node/870098037",
        "amenity": "shelter",
        "name": "Cabane de Laus",
        "name:oc": "Cabana deu Laus",
        "source:name:oc": "Lo Congrès"
      },
      "geometry": {
        "type": "Point",
        "coordinates": [
          -0.5002907,
          43.1025635
        ]
      },
      "id": "node/870098037"
    },
    {
      "type": "Feature",
      "properties": {
        "@id": "node/878575445",
        "amenity": "shelter",
        "name": "Cabane d'Arnousse",
        "name:oc": "Capana d'Arnossa",
        "source:name:oc": "Lo Congrès"
      },
      "geometry": {
        "type": "Point",
        "coordinates": [
          -0.5321975,
          42.8246683
        ]
      },
      "id": "node/878575445"
    },
    {
      "type": "Feature",
      "properties": {
        "@id": "node/878575922",
        "amenity": "shelter",
        "name": "Cabane de Gouetsoule",
        "name:oc": "Capana de Güeitasola",
        "source:name:oc": "Lo Congrès"
      },
      "geometry": {
        "type": "Point",
        "coordinates": [
          -0.526838,
          42.8419583
        ]
      },
      "id": "node/878575922"
    },
    {
      "type": "Feature",
      "properties": {
        "@id": "node/884218334",
        "amenity": "shelter",
        "name": "Cabanon",
        "name:oc": "Capanòt",
        "source:name:oc": "Lo Congrès"
      },
      "geometry": {
        "type": "Point",
        "coordinates": [
          -0.7709586,
          42.9692037
        ]
      },
      "id": "node/884218334"
    },
    {
      "type": "Feature",
      "properties": {
        "@id": "node/884218434",
        "amenity": "shelter",
        "name": "Cabane Neuve du Coup",
        "name:oc": "Capana Nava deth Còth",
        "source:name:oc": "Lo Congrès"
      },
      "geometry": {
        "type": "Point",
        "coordinates": [
          -0.778998,
          42.9764123
        ]
      },
      "id": "node/884218434"
    },
    {
      "type": "Feature",
      "properties": {
        "@id": "node/884218516",
        "ele": "630",
        "name": "Elichalt",
        "name:fr": "Auberge Elichalt",
        "tourism": "alpine_hut"
      },
      "geometry": {
        "type": "Point",
        "coordinates": [
          -0.8099712,
          42.9958209
        ]
      },
      "id": "node/884218516"
    },
    {
      "type": "Feature",
      "properties": {
        "@id": "node/884218557",
        "amenity": "shelter",
        "name": "Cabane d'Escuret",
        "name:oc": "Capana d'Escuret",
        "source:name:oc": "Lo Congrès"
      },
      "geometry": {
        "type": "Point",
        "coordinates": [
          -0.7687809,
          42.9691639
        ]
      },
      "id": "node/884218557"
    },
    {
      "type": "Feature",
      "properties": {
        "@id": "node/884218628",
        "amenity": "shelter",
        "name": "Cabane Vieille du Coup",
        "name:oc": "Capana Vielha deth Còth",
        "source:name:oc": "Lo Congrès"
      },
      "geometry": {
        "type": "Point",
        "coordinates": [
          -0.7811883,
          42.9769163
        ]
      },
      "id": "node/884218628"
    },
    {
      "type": "Feature",
      "properties": {
        "@id": "node/892108411",
        "amenity": "shelter",
        "ele": "1250",
        "name": "Refugio de Turieto",
        "shelter_type": "weather_shelter"
      },
      "geometry": {
        "type": "Point",
        "coordinates": [
          -0.0832357,
          42.653444
        ]
      },
      "id": "node/892108411"
    },
    {
      "type": "Feature",
      "properties": {
        "@id": "node/892738761",
        "addr:city": "Gèdre, Gavarnie-Gèdre",
        "addr:postcode": "65120",
        "addr:street": "Hameau d'Héas",
        "email": "contact@aubergedelamunia.com",
        "fee": "no",
        "name": "Auberge de la Munia",
        "phone": "+33 5 62 92 48 39",
        "reservation": "recommended",
        "tourism": "alpine_hut",
        "website": "http://www.aubergedelamunia.com/",
        "wheelchair": "limited"
      },
      "geometry": {
        "type": "Point",
        "coordinates": [
          0.0874456,
          42.7507943
        ]
      },
      "id": "node/892738761"
    },
    {
      "type": "Feature",
      "properties": {
        "@id": "node/899526022",
        "amenity": "shelter",
        "ele": "2260",
        "fireplace": "no",
        "name": "Cabana de la Comapedrosa",
        "note": "95",
        "source": "Association \"Refuges et cabanes des Pyrénées\"",
        "wikidata": "Q3649136"
      },
      "geometry": {
        "type": "Point",
        "coordinates": [
          1.446805,
          42.581368
        ]
      },
      "id": "node/899526022"
    },
    {
      "type": "Feature",
      "properties": {
        "@id": "node/899526058",
        "description": "2021-09 : Solide abris en pierre . Place pour 4-5 matelas sur une réhausse en béton. Emplacement pour feu. Bancs et table. Proche rivière. \nBémol : Très sombre, pas super propre et route à proximité.",
        "ele": "1838",
        "fireplace": "yes",
        "name": "Cabana de la Pleta del Castellar",
        "ref:FR:pyrenees_refuges": "578",
        "tourism": "wilderness_hut",
        "wikidata": "Q3649144",
        "wikipedia": "ca:Cabana del Castellar"
      },
      "geometry": {
        "type": "Point",
        "coordinates": [
          1.5114513,
          42.6334407
        ]
      },
      "id": "node/899526058"
    },
    {
      "type": "Feature",
      "properties": {
        "@id": "node/899526219",
        "amenity": "shelter",
        "wikidata": "Q3931668"
      },
      "geometry": {
        "type": "Point",
        "coordinates": [
          1.6089534,
          42.5110695
        ]
      },
      "id": "node/899526219"
    },
    {
      "type": "Feature",
      "properties": {
        "@id": "node/899526271",
        "amenity": "shelter",
        "name": "Cabana del Serrat de la Barracota",
        "note": "1131",
        "source": "Association \"Refuges et cabanes des Pyrénées\""
      },
      "geometry": {
        "type": "Point",
        "coordinates": [
          1.6293964,
          42.4822694
        ]
      },
      "id": "node/899526271"
    },
    {
      "type": "Feature",
      "properties": {
        "@id": "node/909309129",
        "tourism": "alpine_hut"
      },
      "geometry": {
        "type": "Point",
        "coordinates": [
          2.260449,
          42.6757698
        ]
      },
      "id": "node/909309129"
    },
    {
      "type": "Feature",
      "properties": {
        "@id": "node/932308944",
        "amenity": "shelter",
        "fireplace": "yes"
      },
      "geometry": {
        "type": "Point",
        "coordinates": [
          2.0738208,
          42.5290758
        ]
      },
      "id": "node/932308944"
    },
    {
      "type": "Feature",
      "properties": {
        "@id": "node/942257506",
        "amenity": "shelter",
        "beds": "0",
        "commentaire": "cabane chasseurs",
        "description": "2018-10 : Utilisée et entretenue par des chasseurs, était ouverte en avril 2018. Grande table avec bancs Cheminée Pas de couchage. Eau et bois à proximité.",
        "ele": "637",
        "fireplace": "yes",
        "name": "Cabane Planque Haute",
        "ref:refuges.info": "6477",
        "shelter_type": "basic_hut",
        "stove": "no"
      },
      "geometry": {
        "type": "Point",
        "coordinates": [
          2.1509015,
          43.4203645
        ]
      },
      "id": "node/942257506"
    },
    {
      "type": "Feature",
      "properties": {
        "@id": "node/942832880",
        "amenity": "shelter"
      },
      "geometry": {
        "type": "Point",
        "coordinates": [
          -1.4349609,
          43.3135616
        ]
      },
      "id": "node/942832880"
    },
    {
      "type": "Feature",
      "properties": {
        "@id": "node/946017822",
        "amenity": "shelter",
        "name": "cabane chasseurs",
        "shelter_type": "basic_hut"
      },
      "geometry": {
        "type": "Point",
        "coordinates": [
          2.27718,
          43.480663
        ]
      },
      "id": "node/946017822"
    },
    {
      "type": "Feature",
      "properties": {
        "@id": "node/957015586",
        "addr:city": "Aucun",
        "addr:postcode": "65400",
        "addr:street": "Route du Bergons",
        "amenity": "restaurant",
        "name": "Refuge du Haugarou",
        "phone": "+33 5 62 97 25 04",
        "ref:refuges.info": "7987",
        "tourism": "alpine_hut",
        "website": "https://www.haugarou.com/"
      },
      "geometry": {
        "type": "Point",
        "coordinates": [
          -0.2157588,
          43.0007017
        ]
      },
      "id": "node/957015586"
    },
    {
      "type": "Feature",
      "properties": {
        "@id": "node/963677667",
        "amenity": "shelter",
        "beds": "0",
        "description": "2018-12 : En bon état, ouverte. 1 table et 2 bancs, aucun couchage prévu.",
        "ele": "1080",
        "fireplace": "no",
        "name": "Refuge forestier du Gai Sourire",
        "ref:FR:pyrenees_refuges": "371",
        "ref:refuges.info": "6046",
        "shelter_type": "weather_shelter",
        "source": "Association \"Refuges et cabanes des Pyrénées\"",
        "stove": "no"
      },
      "geometry": {
        "type": "Point",
        "coordinates": [
          2.3523359,
          42.7626922
        ]
      },
      "id": "node/963677667"
    },
    {
      "type": "Feature",
      "properties": {
        "@id": "node/963677768",
        "capacity": "4",
        "description": "2018-06 : Cabane en 2 parties, une pour le berger et une pour les randonneurs (à gauche quand on fait face aux portes). Équipement intérieur : - 1 table - 4 tabourets - 1 cheminée - 2 bat-flancs avec matelas, plus 2 matelas supplémentaires",
        "ele": "1652",
        "fireplace": "yes",
        "name": "Cabane de la Jasse de Sedars",
        "ref:FR:pyrenees_refuges": "180",
        "ref:refuges.info": "6293",
        "source": "Association \"Refuges et cabanes des Pyrénées\"",
        "stove": "no",
        "tourism": "wilderness_hut"
      },
      "geometry": {
        "type": "Point",
        "coordinates": [
          1.7562605,
          42.8092343
        ]
      },
      "id": "node/963677768"
    },
    {
      "type": "Feature",
      "properties": {
        "@id": "node/963677783",
        "amenity": "shelter",
        "description": "2018-10 : Un toit en grosse pierres, 4m² a peu prés secs, pas de porte, sol en terre battue, pas de moyen de chauffage.",
        "fireplace": "no",
        "name": "Orri de Bousadus du Haut",
        "ref:FR:pyrenees_refuges": "1109",
        "ref:refuges.info": "3464",
        "shelter_type": "weather_shelter",
        "source": "Association \"Refuges et cabanes des Pyrénées\"",
        "stove": "no"
      },
      "geometry": {
        "type": "Point",
        "coordinates": [
          2.02869,
          42.69242
        ]
      },
      "id": "node/963677783"
    },
    {
      "type": "Feature",
      "properties": {
        "@id": "node/963677797",
        "amenity": "shelter",
        "beds": "0",
        "building": "yes",
        "capacity": "4",
        "description": "2021-08 : Cabane en pierres sèches en bon état. On doit pouvoir y dormir à 3-4 personnes en se serrant un peu. Très rustique, plutôt un abri de secours en cas de besoin.",
        "ele": "1375",
        "fireplace": "yes",
        "name": "Cabane Cirerola",
        "ref:FR:pyrenees_refuges": "389",
        "ref:refuges.info": "7860",
        "shelter_type": "weather_shelter",
        "source": "Association \"Refuges et cabanes des Pyrénées\"",
        "stove": "no"
      },
      "geometry": {
        "type": "Point",
        "coordinates": [
          2.4114,
          42.5232
        ]
      },
      "id": "node/963677797"
    },
    {
      "type": "Feature",
      "properties": {
        "@id": "node/963677909",
        "amenity": "shelter",
        "name": "Cabane Rieutort",
        "note": "355",
        "source": "Association \"Refuges et cabanes des Pyrénées\""
      },
      "geometry": {
        "type": "Point",
        "coordinates": [
          2.0683335,
          42.6561087
        ]
      },
      "id": "node/963677909"
    },
    {
      "type": "Feature",
      "properties": {
        "@id": "node/963678094",
        "amenity": "shelter",
        "name": "Cabane de Prat Moussu",
        "note": "1139",
        "source": "Association \"Refuges et cabanes des Pyrénées\""
      },
      "geometry": {
        "type": "Point",
        "coordinates": [
          1.728,
          42.8644
        ]
      },
      "id": "node/963678094"
    },
    {
      "type": "Feature",
      "properties": {
        "@id": "node/963678319",
        "amenity": "shelter",
        "name": "Refuge pastoral de Sainte-Léocadie",
        "note": "1070",
        "source": "Association \"Refuges et cabanes des Pyrénées\""
      },
      "geometry": {
        "type": "Point",
        "coordinates": [
          2.022815,
          42.420336
        ]
      },
      "id": "node/963678319"
    },
    {
      "type": "Feature",
      "properties": {
        "@id": "node/963678438",
        "capacity": "6",
        "description": "2018-01 : Solide battisse très bien isolée. Équipement : - 2 bas-flancs superposés avec matelas en mousse. - 1 table - 1 chaise, 1 banc, 5/6 tabourets",
        "ele": "1630",
        "fireplace": "yes",
        "name": "Cabane des Ludines",
        "ref:FR:pyrenees_refuges": "211",
        "ref:refuges.info": "5390",
        "source": "Association \"Refuges et cabanes des Pyrénées\"",
        "stove": "no",
        "tourism": "wilderness_hut"
      },
      "geometry": {
        "type": "Point",
        "coordinates": [
          1.6327407,
          42.7032582
        ]
      },
      "id": "node/963678438"
    },
    {
      "type": "Feature",
      "properties": {
        "@id": "node/963678445",
        "amenity": "shelter",
        "name": "Cabane de Esprays d'En Haut",
        "note": "124",
        "source": "Association \"Refuges et cabanes des Pyrénées\""
      },
      "geometry": {
        "type": "Point",
        "coordinates": [
          1.9481741,
          42.7002066
        ]
      },
      "id": "node/963678445"
    },
    {
      "type": "Feature",
      "properties": {
        "@id": "node/963678499",
        "amenity": "shelter",
        "name": "Cabanes Pla de la Vaca Morta",
        "note": "986",
        "source": "Association \"Refuges et cabanes des Pyrénées\""
      },
      "geometry": {
        "type": "Point",
        "coordinates": [
          1.757845,
          42.566515
        ]
      },
      "id": "node/963678499"
    },
    {
      "type": "Feature",
      "properties": {
        "@id": "node/963678657",
        "capacity": "4",
        "description": "2017-03 : Deux parties, l'une étant réservée au berger et donc fermée. L'autre comprend : 4 places sur bat-flanc avec matelas. Cheminée tirant bien, grande table, bancs. Porte métallique s'ouvrant vers l'extérieur.",
        "fireplace": "yes",
        "name": "Cabane de la Jasse de Bretounels",
        "ref:FR:pyrenees_refuges": "616",
        "ref:refuges.info": "5775",
        "source": "Association \"Refuges et cabanes des Pyrénées\"",
        "stove": "no",
        "tourism": "wilderness_hut"
      },
      "geometry": {
        "type": "Point",
        "coordinates": [
          1.7468973,
          42.7099252
        ]
      },
      "id": "node/963678657"
    },
    {
      "type": "Feature",
      "properties": {
        "@id": "node/963678766",
        "name": "Cabane Serrat del Freser",
        "ref:FR:pyrenees_refuges": "1000",
        "ref:refuges.info": "7937",
        "source": "Association \"Refuges et cabanes des Pyrénées\"",
        "tourism": "wilderness_hut"
      },
      "geometry": {
        "type": "Point",
        "coordinates": [
          1.8633562,
          42.5022624
        ]
      },
      "id": "node/963678766"
    },
    {
      "type": "Feature",
      "properties": {
        "@id": "node/963678866",
        "amenity": "shelter",
        "name": "cabane de Oratori col Dolent - Ax les Thermes",
        "note": "980",
        "source": "Association \"Refuges et cabanes des Pyrénées\""
      },
      "geometry": {
        "type": "Point",
        "coordinates": [
          1.648333,
          42.778611
        ]
      },
      "id": "node/963678866"
    },
    {
      "type": "Feature",
      "properties": {
        "@id": "node/963679036",
        "amenity": "shelter",
        "name": "Refuge de La Bentaillole",
        "note": "354",
        "source": "Association \"Refuges et cabanes des Pyrénées\""
      },
      "geometry": {
        "type": "Point",
        "coordinates": [
          2.0649722,
          42.6775808
        ]
      },
      "id": "node/963679036"
    },
    {
      "type": "Feature",
      "properties": {
        "@id": "node/963679056",
        "amenity": "shelter",
        "name": "Abri Coma del Tech",
        "note": "387",
        "source": "Association \"Refuges et cabanes des Pyrénées\""
      },
      "geometry": {
        "type": "Point",
        "coordinates": [
          2.3509521,
          42.4270312
        ]
      },
      "id": "node/963679056"
    },
    {
      "type": "Feature",
      "properties": {
        "@id": "node/963679060",
        "capacity": "4",
        "description": "2013-06 : Seule la partie gauche est ouverte aux randonneurs, la partie droite étant réservée aux bergers Deux tables, 3 bancs, une belle cheminée",
        "ele": "1610",
        "fireplace": "yes",
        "name": "Cabane de Quioulès",
        "ref:FR:pyrenees_refuges": "277",
        "ref:refuges.info": "3676",
        "source": "Association \"Refuges et cabanes des Pyrénées\"",
        "stove": "no",
        "tourism": "wilderness_hut"
      },
      "geometry": {
        "type": "Point",
        "coordinates": [
          1.6364553,
          42.6699838
        ]
      },
      "id": "node/963679060"
    },
    {
      "type": "Feature",
      "properties": {
        "@id": "node/963679065",
        "addr:street": "Carrer de la Casa Vella",
        "name": "Refugi UEC de la Molina",
        "ref:FR:pyrenees_refuges": "840",
        "source": "Association \"Refuges et cabanes des Pyrénées\"",
        "tourism": "alpine_hut"
      },
      "geometry": {
        "type": "Point",
        "coordinates": [
          1.9550422,
          42.3395297
        ]
      },
      "id": "node/963679065"
    },
    {
      "type": "Feature",
      "properties": {
        "@id": "node/963679081",
        "amenity": "shelter",
        "name": "Cabane Coulibet",
        "note": "385",
        "source": "Association \"Refuges et cabanes des Pyrénées\""
      },
      "geometry": {
        "type": "Point",
        "coordinates": [
          2.361389,
          42.451667
        ]
      },
      "id": "node/963679081"
    },
    {
      "type": "Feature",
      "properties": {
        "@id": "node/963679084",
        "alt_name": "Barraca de Noufonts",
        "amenity": "shelter",
        "beds": "0",
        "bench": "no",
        "bin": "no",
        "description": "2018-08 : Cabane basse de plafond, en pierre sèche, type orri. Permet de s'allonger à deux dedans, mais sans confort.",
        "ele": "2660",
        "fireplace": "no",
        "name": "Abri Coll de Nou Fonts",
        "ref:FR:pyrenees_refuges": "631",
        "ref:refuges.info": "6363",
        "shelter_type": "weather_shelter",
        "source": "Association \"Refuges et cabanes des Pyrénées\";survey",
        "stove": "no"
      },
      "geometry": {
        "type": "Point",
        "coordinates": [
          2.1769678,
          42.4206486
        ]
      },
      "id": "node/963679084"
    },
    {
      "type": "Feature",
      "properties": {
        "@id": "node/963679216",
        "amenity": "shelter",
        "name": "Orri de l'Estanyol",
        "name:ca": "Orri de l'Estanyol",
        "ref:FR:pyrenees_refuges": "720",
        "shelter_type": "weather_shelter",
        "source": "Association 'Refuges et Cabanes des Pyrénées'"
      },
      "geometry": {
        "type": "Point",
        "coordinates": [
          2.168982,
          42.430076
        ]
      },
      "id": "node/963679216"
    },
    {
      "type": "Feature",
      "properties": {
        "@id": "node/963679339",
        "amenity": "shelter",
        "name": "Cabane Escalier - ax les thermes",
        "note": "620",
        "source": "Association \"Refuges et cabanes des Pyrénées\""
      },
      "geometry": {
        "type": "Point",
        "coordinates": [
          1.615897,
          42.722212
        ]
      },
      "id": "node/963679339"
    },
    {
      "type": "Feature",
      "properties": {
        "@id": "node/963679433",
        "capacity": "10",
        "description": "2020-10 : Cabane bien équipée : éclairage par panneaux solaires, gazinière. Environ 10 places de couchage, 6 matelas et quelques bout de mousse. Poêles et casseroles, quelques assiettes plastique et gobelets Une scie à bois, balais et pelle.",
        "ele": "615",
        "electrified": "1585",
        "fireplace": "yes",
        "name": "Cabane de Boutas",
        "ref:FR:pyrenees_refuges": "615",
        "ref:refuges.info": "7294",
        "source": "Association \"Refuges et cabanes des Pyrénées\"",
        "stove": "no",
        "tourism": "wilderness_hut"
      },
      "geometry": {
        "type": "Point",
        "coordinates": [
          1.7406633,
          42.6993002
        ]
      },
      "id": "node/963679433"
    },
    {
      "type": "Feature",
      "properties": {
        "@id": "node/963753889",
        "amenity": "shelter",
        "name": "Cabane forestiere de Gesties - Vicdessos",
        "note": "1141",
        "ref:refuges.info": "7929",
        "source": "Association \"Refuges et cabanes des Pyrénées\""
      },
      "geometry": {
        "type": "Point",
        "coordinates": [
          1.5947936,
          42.7398447
        ]
      },
      "id": "node/963753889"
    },
    {
      "type": "Feature",
      "properties": {
        "@id": "node/963754093",
        "amenity": "shelter",
        "bench": "yes",
        "bin": "no",
        "lockable": "no",
        "name": "Cabane de Garsan",
        "note": "151",
        "source": "Association \"Refuges et cabanes des Pyrénées\""
      },
      "geometry": {
        "type": "Point",
        "coordinates": [
          1.7106598,
          42.6414574
        ]
      },
      "id": "node/963754093"
    },
    {
      "type": "Feature",
      "properties": {
        "@id": "node/963754299",
        "amenity": "shelter",
        "name": "Orry Jasse de Gaberseille",
        "note": "1021",
        "source": "Association \"Refuges et cabanes des Pyrénées\""
      },
      "geometry": {
        "type": "Point",
        "coordinates": [
          1.956944,
          42.709167
        ]
      },
      "id": "node/963754299"
    },
    {
      "type": "Feature",
      "properties": {
        "@id": "node/963754389",
        "amenity": "shelter",
        "name": "Orri de Beille - ax les thermes",
        "note": "879",
        "source": "Association \"Refuges et cabanes des Pyrénées\""
      },
      "geometry": {
        "type": "Point",
        "coordinates": [
          1.716211,
          42.698909
        ]
      },
      "id": "node/963754389"
    },
    {
      "type": "Feature",
      "properties": {
        "@id": "node/963754407",
        "capacity": "4",
        "description": "2021-05 : -Le refuge est ouvert, simplement fermé par une porte en fer -La cheminée tire bien et ne refoule pas. -table, chaises, bat-flancs -outils disponibles",
        "fireplace": "yes",
        "name": "Refuge des Vigourats",
        "ref:FR:pyrenees_refuges": "1071",
        "ref:refuges.info": "7625",
        "source": "Association \"Refuges et cabanes des Pyrénées\"",
        "stove": "no",
        "tourism": "wilderness_hut"
      },
      "geometry": {
        "type": "Point",
        "coordinates": [
          2.5770786,
          42.4893724
        ]
      },
      "id": "node/963754407"
    },
    {
      "type": "Feature",
      "properties": {
        "@id": "node/963756037",
        "amenity": "shelter",
        "name": "Cabane d'Ascou",
        "note": "35",
        "source": "Association \"Refuges et cabanes des Pyrénées\""
      },
      "geometry": {
        "type": "Point",
        "coordinates": [
          1.9315772,
          42.7182874
        ]
      },
      "id": "node/963756037"
    },
    {
      "type": "Feature",
      "properties": {
        "@id": "node/963756064",
        "amenity": "shelter",
        "name": "Mata Negra",
        "name:ca": "Mata Negra",
        "ref:FR:pyrenees_refuges": "991",
        "shelter_type": "basic_hut",
        "source": "Association \"Refuges et cabanes des Pyrénées\""
      },
      "geometry": {
        "type": "Point",
        "coordinates": [
          1.9388635,
          42.5313766
        ]
      },
      "id": "node/963756064"
    },
    {
      "type": "Feature",
      "properties": {
        "@id": "node/963756159",
        "amenity": "shelter",
        "name": "Refuge forestier de Verdun",
        "note": "1096",
        "source": "Association \"Refuges et cabanes des Pyrénées\""
      },
      "geometry": {
        "type": "Point",
        "coordinates": [
          1.7067163,
          42.815405
        ]
      },
      "id": "node/963756159"
    },
    {
      "type": "Feature",
      "properties": {
        "@id": "node/963756375",
        "alt_name": "Orri de la Balmeta",
        "amenity": "shelter",
        "beds": "0",
        "description": "2021-10 : Pas de porte. Orri en pierre qui peut servir d'abri en été, pas en hiver car la neige rentre dedans ou la submerge",
        "ele": "2040",
        "fireplace": "no",
        "name": "Orri de la Balmette",
        "ref:FR:pyrenees_refuges": "351",
        "ref:refuges.info": "7900",
        "shelter_type": "weather_shelter",
        "source": "Association \"Refuges et cabanes des Pyrénées\"",
        "stove": "no"
      },
      "geometry": {
        "type": "Point",
        "coordinates": [
          2.2135387,
          42.6626315
        ]
      },
      "id": "node/963756375"
    },
    {
      "type": "Feature",
      "properties": {
        "@id": "node/963756577",
        "alt_name": "Abri de Balcère",
        "capacity": "10",
        "description": "2016-02 : deux bas flanc de 2 personnes, une table, un poêle efficace à la place de la cheminée mais plus de mezzanine",
        "ele": "1772",
        "fireplace": "yes",
        "name": "Abri de Vallserra",
        "ref:FR:pyrenees_refuges": "322",
        "ref:refuges.info": "4407",
        "source": "Association \"Refuges et cabanes des Pyrénées\"",
        "stove": "yes",
        "tourism": "wilderness_hut"
      },
      "geometry": {
        "type": "Point",
        "coordinates": [
          2.0537403,
          42.5909766
        ]
      },
      "id": "node/963756577"
    },
    {
      "type": "Feature",
      "properties": {
        "@id": "node/963756617",
        "capacity": "2",
        "description": "2018-01 : Cabane en très bon état, deux couchages + un au sol. Le poêle est tout neuf. Il y a une scie et une petite réserve de bois. Seule la partie droite de la cabane est accessible, l'autre partie est fermée, réservée au berger.",
        "ele": "2435",
        "fee": "yes",
        "fireplace": "no",
        "name": "Abri de Coll Roig",
        "operator": "Privat i tancat",
        "ref:FR:pyrenees_refuges": "949",
        "ref:refuges.info": "3523",
        "source": "Association \"Refuges et cabanes des Pyrénées\"",
        "stove": "yes",
        "tourism": "wilderness_hut"
      },
      "geometry": {
        "type": "Point",
        "coordinates": [
          1.9302512,
          42.5450268
        ]
      },
      "id": "node/963756617"
    },
    {
      "type": "Feature",
      "properties": {
        "@id": "node/963756779",
        "amenity": "shelter",
        "name": "Chalet forestier de Courtal-Jouan",
        "note": "956",
        "source": "Association \"Refuges et cabanes des Pyrénées\""
      },
      "geometry": {
        "type": "Point",
        "coordinates": [
          1.8462652,
          42.6800149
        ]
      },
      "id": "node/963756779"
    },
    {
      "type": "Feature",
      "properties": {
        "@id": "node/963756826",
        "amenity": "shelter",
        "name": "Cabane de Griman",
        "note": "676",
        "source": "Association \"Refuges et cabanes des Pyrénées\""
      },
      "geometry": {
        "type": "Point",
        "coordinates": [
          1.855,
          42.649722
        ]
      },
      "id": "node/963756826"
    },
    {
      "type": "Feature",
      "properties": {
        "@id": "node/963756915",
        "amenity": "shelter",
        "name": "Cabane du Besset du Haut - Ax les Thermes",
        "ref:FR:pyrenees_refuges": "901",
        "ref:refuges.info": "7928",
        "source": "Association \"Refuges et cabanes des Pyrénées\""
      },
      "geometry": {
        "type": "Point",
        "coordinates": [
          1.6177061,
          42.7446
        ]
      },
      "id": "node/963756915"
    },
    {
      "type": "Feature",
      "properties": {
        "@id": "node/963756954",
        "name": "Refugi CEC de la Molina",
        "name:ca": "Refugi CEC de la Molina",
        "ref:FR:pyrenees_refuges": "839",
        "source": "Association \"Refuges et cabanes des Pyrénées\"",
        "tourism": "alpine_hut"
      },
      "geometry": {
        "type": "Point",
        "coordinates": [
          1.9503392,
          42.3405242
        ]
      },
      "id": "node/963756954"
    },
    {
      "type": "Feature",
      "properties": {
        "@id": "node/963756959",
        "amenity": "shelter",
        "name": "Orri de Prat Redoun",
        "note": "881",
        "source": "Association \"Refuges et cabanes des Pyrénées\""
      },
      "geometry": {
        "type": "Point",
        "coordinates": [
          1.7616075,
          42.6508119
        ]
      },
      "id": "node/963756959"
    },
    {
      "type": "Feature",
      "properties": {
        "@id": "node/963757103",
        "amenity": "shelter",
        "name": "Refuge Pastoral des Planes",
        "note": "369",
        "source": "Association \"Refuges et cabanes des Pyrénées\""
      },
      "geometry": {
        "type": "Point",
        "coordinates": [
          2.0808352,
          42.3955247
        ]
      },
      "id": "node/963757103"
    },
    {
      "type": "Feature",
      "properties": {
        "@id": "node/963757567",
        "amenity": "shelter",
        "name": "Refuge Casot del Guard",
        "note": "402",
        "source": "Association \"Refuges et cabanes des Pyrénées\""
      },
      "geometry": {
        "type": "Point",
        "coordinates": [
          2.9294621,
          42.4929094
        ]
      },
      "id": "node/963757567"
    },
    {
      "type": "Feature",
      "properties": {
        "@id": "node/963761812",
        "amenity": "shelter",
        "name": "Orri de Joucarets",
        "note": "1112",
        "source": "Association \"Refuges et cabanes des Pyrénées\""
      },
      "geometry": {
        "type": "Point",
        "coordinates": [
          2.11144,
          42.67034
        ]
      },
      "id": "node/963761812"
    },
    {
      "type": "Feature",
      "properties": {
        "@id": "node/963761822",
        "amenity": "shelter",
        "name": "Cabane de La Unarde - ax les thermes",
        "note": "319",
        "source": "Association \"Refuges et cabanes des Pyrénées\""
      },
      "geometry": {
        "type": "Point",
        "coordinates": [
          1.5915083,
          42.6922959
        ]
      },
      "id": "node/963761822"
    },
    {
      "type": "Feature",
      "properties": {
        "@id": "node/963762238",
        "amenity": "shelter",
        "name": "Orri de Quioulès",
        "note": "278",
        "source": "Association \"Refuges et cabanes des Pyrénées\""
      },
      "geometry": {
        "type": "Point",
        "coordinates": [
          1.649473,
          42.68294
        ]
      },
      "id": "node/963762238"
    },
    {
      "type": "Feature",
      "properties": {
        "@id": "node/963762256",
        "amenity": "shelter",
        "name": "Cabane de La Jasse des Galis - ax les thermes",
        "note": "149",
        "source": "Association \"Refuges et cabanes des Pyrénées\""
      },
      "geometry": {
        "type": "Point",
        "coordinates": [
          1.6875724,
          42.6976042
        ]
      },
      "id": "node/963762256"
    },
    {
      "type": "Feature",
      "properties": {
        "@id": "node/963762282",
        "capacity": "8",
        "description": "2019-12 : -occupée l'été par un berger début juin à fin octobre. Bonne isolation -vaisselle -table, bancs -ustensiles de cuisine -évier avec eau couranteen été uniquement. -occupée l'été par un berger début juin à fin octobre.",
        "fireplace": "yes",
        "name": "Cabane de la Jasse de Sénard",
        "ref:FR:pyrenees_refuges": "717",
        "ref:refuges.info": "6812",
        "source": "Association \"Refuges et cabanes des Pyrénées\"",
        "stove": "no",
        "tourism": "wilderness_hut"
      },
      "geometry": {
        "type": "Point",
        "coordinates": [
          1.6860237,
          42.6822369
        ]
      },
      "id": "node/963762282"
    },
    {
      "type": "Feature",
      "properties": {
        "@id": "node/963762288",
        "amenity": "shelter",
        "name": "Cabane de Bedeillere",
        "note": "955",
        "source": "Association \"Refuges et cabanes des Pyrénées\""
      },
      "geometry": {
        "type": "Point",
        "coordinates": [
          2.0025,
          42.704444
        ]
      },
      "id": "node/963762288"
    },
    {
      "type": "Feature",
      "properties": {
        "@id": "node/963762390",
        "amenity": "shelter",
        "name": "Cabane du Ressec du Bas",
        "note": "285",
        "source": "Association \"Refuges et cabanes des Pyrénées\""
      },
      "geometry": {
        "type": "Point",
        "coordinates": [
          1.8764437,
          42.6824846
        ]
      },
      "id": "node/963762390"
    },
    {
      "type": "Feature",
      "properties": {
        "@id": "node/963762434",
        "amenity": "shelter",
        "name": "Cabane Isarges - ax les thermes",
        "note": "622",
        "source": "Association \"Refuges et cabanes des Pyrénées\""
      },
      "geometry": {
        "type": "Point",
        "coordinates": [
          1.6878157,
          42.724231
        ]
      },
      "id": "node/963762434"
    },
    {
      "type": "Feature",
      "properties": {
        "@id": "node/963762780",
        "capacity": "4",
        "description": "2016-02 : Equipement : - 1 bat-flanc - 1 table (petite) - 1 banc (petit, tout est petit à Bela ...) - A l'extérieur, une table pique-nique en bois avec ses 2 bancs solidaires. La partie de gauche de la Cabane est fermée et réservée au berger.",
        "ele": "1780",
        "fireplace": "yes",
        "name": "Cabane de Bela",
        "ref:FR:pyrenees_refuges": "54",
        "ref:refuges.info": "5399",
        "source": "Association \"Refuges et cabanes des Pyrénées\"",
        "stove": "no",
        "tourism": "wilderness_hut"
      },
      "geometry": {
        "type": "Point",
        "coordinates": [
          1.630693,
          42.6580075
        ]
      },
      "id": "node/963762780"
    },
    {
      "type": "Feature",
      "properties": {
        "@id": "node/963762788",
        "capacity": "5",
        "description": "2018-07 : Cabane pastorale, réservée en priorité au berger, mais laissée à la disposition des randonneurs en son absence. Cheminée, des matelas, un bas flanc, une table, banc, et de nombreux rangements.",
        "ele": "2065",
        "fireplace": "yes",
        "name": "Cabane de la Jasse de Brougnic",
        "ref:FR:pyrenees_refuges": "71",
        "ref:refuges.info": "6318",
        "source": "Association \"Refuges et cabanes des Pyrénées\"",
        "stove": "no",
        "tourism": "wilderness_hut"
      },
      "geometry": {
        "type": "Point",
        "coordinates": [
          1.7827695,
          42.603761
        ]
      },
      "id": "node/963762788"
    },
    {
      "type": "Feature",
      "properties": {
        "@id": "node/963762835",
        "amenity": "shelter",
        "name": "Cabane du Vacher",
        "note": "866",
        "source": "Association \"Refuges et cabanes des Pyrénées\""
      },
      "geometry": {
        "type": "Point",
        "coordinates": [
          1.7811009,
          42.8558211
        ]
      },
      "id": "node/963762835"
    },
    {
      "type": "Feature",
      "properties": {
        "@id": "node/963762867",
        "amenity": "shelter",
        "name": "Cabane de Piedarlau",
        "note": "350",
        "source": "Association \"Refuges et cabanes des Pyrénées\""
      },
      "geometry": {
        "type": "Point",
        "coordinates": [
          1.7745253,
          42.6688958
        ]
      },
      "id": "node/963762867"
    },
    {
      "type": "Feature",
      "properties": {
        "@id": "node/963762875",
        "amenity": "shelter",
        "name": "Abri Pedourres",
        "note": "245",
        "shelter_type": "rock_shelter",
        "source": "Association \"Refuges et cabanes des Pyrénées\""
      },
      "geometry": {
        "type": "Point",
        "coordinates": [
          1.770121,
          42.614659
        ]
      },
      "id": "node/963762875"
    },
    {
      "type": "Feature",
      "properties": {
        "@id": "node/963762947",
        "capacity": "2",
        "description": "2019-03 : Cabane utilisée par un berger en période d'estive. La partie de droite, fermée, est utilisée par les chasseurs, mais est parfois ouverte (table, bancs, matelas, cheminée). La partie de gauche abrite une petite table, deux chaises, un lit",
        "fireplace": "yes",
        "name": "Refuge Pla de Tabe",
        "ref:FR:pyrenees_refuges": "958",
        "ref:refuges.info": "6603",
        "source": "Association \"Refuges et cabanes des Pyrénées\"",
        "stove": "no",
        "tourism": "wilderness_hut"
      },
      "geometry": {
        "type": "Point",
        "coordinates": [
          1.6990805,
          42.8388689
        ]
      },
      "id": "node/963762947"
    },
    {
      "type": "Feature",
      "properties": {
        "@id": "node/963763000",
        "check_date": "2024-07-13",
        "ele": "1600",
        "name": "Refuge du Chioula",
        "ref:FR:pyrenees_refuges": "344",
        "source": "Association \"Refuges et cabanes des Pyrénées\"",
        "tourism": "alpine_hut"
      },
      "geometry": {
        "type": "Point",
        "coordinates": [
          1.8635796,
          42.7550775
        ]
      },
      "id": "node/963763000"
    },
    {
      "type": "Feature",
      "properties": {
        "@id": "node/963763052",
        "amenity": "shelter",
        "name": "Cabane de La Jasse des Froncasses",
        "note": "398",
        "source": "Association \"Refuges et cabanes des Pyrénées\""
      },
      "geometry": {
        "type": "Point",
        "coordinates": [
          2.479722,
          42.466389
        ]
      },
      "id": "node/963763052"
    },
    {
      "type": "Feature",
      "properties": {
        "@id": "node/963763156",
        "amenity": "shelter",
        "name": "Cabane du Fourquet",
        "note": "1095",
        "source": "Association \"Refuges et cabanes des Pyrénées\""
      },
      "geometry": {
        "type": "Point",
        "coordinates": [
          1.7022,
          42.822778
        ]
      },
      "id": "node/963763156"
    },
    {
      "type": "Feature",
      "properties": {
        "@id": "node/963763604",
        "amenity": "shelter",
        "name": "Cabane Cums",
        "note": "390",
        "source": "Association \"Refuges et cabanes des Pyrénées\""
      },
      "geometry": {
        "type": "Point",
        "coordinates": [
          2.4251234,
          42.4589019
        ]
      },
      "id": "node/963763604"
    },
    {
      "type": "Feature",
      "properties": {
        "@id": "node/963763696",
        "capacity": "3",
        "description": "2016-04 : Une cheminée, 2 tables, 5 chaises, 3 places en bat-flanc et un évier (eau l'été du ruisseau proche)",
        "ele": "1385",
        "fireplace": "yes",
        "name": "Maison forestière de l'Orri",
        "ref:FR:pyrenees_refuges": "651",
        "ref:refuges.info": "5477",
        "source": "Association \"Refuges et cabanes des Pyrénées\"",
        "stove": "no",
        "tourism": "wilderness_hut"
      },
      "geometry": {
        "type": "Point",
        "coordinates": [
          1.771991,
          42.8588706
        ]
      },
      "id": "node/963763696"
    },
    {
      "type": "Feature",
      "properties": {
        "@id": "node/963763973",
        "ele": "1833",
        "name": "Refugi forestal de les Cases",
        "name:ca": "Refugi forestal de les Cases",
        "ref:FR:pyrenees_refuges": "1009",
        "source": "Association \"Refuges et cabanes des Pyrénées\"",
        "tourism": "wilderness_hut"
      },
      "geometry": {
        "type": "Point",
        "coordinates": [
          1.8430529,
          42.4702091
        ]
      },
      "id": "node/963763973"
    },
    {
      "type": "Feature",
      "properties": {
        "@id": "node/963764091",
        "amenity": "shelter",
        "name": "Orri des Pradettes - ax les thermes",
        "note": "271",
        "source": "Association \"Refuges et cabanes des Pyrénées\""
      },
      "geometry": {
        "type": "Point",
        "coordinates": [
          1.658421,
          42.682956
        ]
      },
      "id": "node/963764091"
    },
    {
      "type": "Feature",
      "properties": {
        "@id": "node/963764238",
        "amenity": "shelter",
        "fixme": "Vérifier si cette cabane existe ou si c'est un doublon de celle située à 100 mètres au sud-ouest",
        "name": "Cabane Privée de Sauzet",
        "note": "708",
        "source": "Association \"Refuges et cabanes des Pyrénées\""
      },
      "geometry": {
        "type": "Point",
        "coordinates": [
          1.734166,
          42.726745
        ]
      },
      "id": "node/963764238"
    },
    {
      "type": "Feature",
      "properties": {
        "@id": "node/963764288",
        "amenity": "shelter",
        "name": "Cabane ruinée de Rebenne",
        "note": "282",
        "ref:refuges.info": "3677",
        "source": "Association \"Refuges et cabanes des Pyrénées\""
      },
      "geometry": {
        "type": "Point",
        "coordinates": [
          1.6478165,
          42.6491758
        ]
      },
      "id": "node/963764288"
    },
    {
      "type": "Feature",
      "properties": {
        "@id": "node/963808647",
        "amenity": "shelter",
        "name": "Courtaou de la Lit",
        "note": "445"
      },
      "geometry": {
        "type": "Point",
        "coordinates": [
          0.0841496,
          42.9715818
        ]
      },
      "id": "node/963808647"
    },
    {
      "type": "Feature",
      "properties": {
        "@id": "node/963808654",
        "amenity": "shelter",
        "ele": "2031",
        "name": "Cabane de Camplong"
      },
      "geometry": {
        "type": "Point",
        "coordinates": [
          0.0778499,
          42.7620857
        ]
      },
      "id": "node/963808654"
    },
    {
      "type": "Feature",
      "properties": {
        "@id": "node/963808817",
        "amenity": "shelter",
        "name": "Cabane du Lisey - Cauterets",
        "note": "206"
      },
      "geometry": {
        "type": "Point",
        "coordinates": [
          -0.0915748,
          42.8876019
        ]
      },
      "id": "node/963808817"
    },
    {
      "type": "Feature",
      "properties": {
        "@id": "node/963809125",
        "amenity": "shelter",
        "name": "Orri de Boutas",
        "note": "707",
        "source": "Association \"Refuges et cabanes des Pyrénées\""
      },
      "geometry": {
        "type": "Point",
        "coordinates": [
          1.738994,
          42.700226
        ]
      },
      "id": "node/963809125"
    },
    {
      "type": "Feature",
      "properties": {
        "@id": "node/963809331",
        "amenity": "shelter",
        "beds": "2",
        "bench": "1",
        "name": "Cabane d Aoube",
        "ref:FR:pyrenees_refuges": "16",
        "shelter_type": "basic_hut"
      },
      "geometry": {
        "type": "Point",
        "coordinates": [
          0.117658,
          42.9136539
        ]
      },
      "id": "node/963809331"
    },
    {
      "type": "Feature",
      "properties": {
        "@id": "node/963809413",
        "amenity": "shelter",
        "name": "Refuge Salines",
        "note": "400",
        "source": "Association \"Refuges et cabanes des Pyrénées\""
      },
      "geometry": {
        "type": "Point",
        "coordinates": [
          2.699167,
          42.420278
        ]
      },
      "id": "node/963809413"
    },
    {
      "type": "Feature",
      "properties": {
        "@id": "node/963809418",
        "amenity": "shelter",
        "name": "Cabane du Col de Jau",
        "note": "379",
        "source": "Association \"Refuges et cabanes des Pyrénées\""
      },
      "geometry": {
        "type": "Point",
        "coordinates": [
          2.2538867,
          42.6826902
        ]
      },
      "id": "node/963809418"
    },
    {
      "type": "Feature",
      "properties": {
        "@id": "node/963809465",
        "amenity": "shelter",
        "name": "Cabane de Beziaou - Campan - La Mongie - Bagneres de Bigorre",
        "note": "1063"
      },
      "geometry": {
        "type": "Point",
        "coordinates": [
          0.213888,
          42.923611
        ]
      },
      "id": "node/963809465"
    },
    {
      "type": "Feature",
      "properties": {
        "@id": "node/963809518",
        "amenity": "shelter",
        "name": "Orris du carla - Vicdessos",
        "ref:FR:pyrenees_refuges": "945",
        "shelter_type": "basic_hut",
        "source": "Association \"Refuges et cabanes des Pyrénées\""
      },
      "geometry": {
        "type": "Point",
        "coordinates": [
          1.4484569,
          42.6568409
        ]
      },
      "id": "node/963809518"
    },
    {
      "type": "Feature",
      "properties": {
        "@id": "node/963809600",
        "name": "Refugio del Coll del Ventc",
        "ref:FR:pyrenees_refuges": "1134",
        "tourism": "alpine_hut"
      },
      "geometry": {
        "type": "Point",
        "coordinates": [
          0.6214057,
          42.3129008
        ]
      },
      "id": "node/963809600"
    },
    {
      "type": "Feature",
      "properties": {
        "@id": "node/963809607",
        "amenity": "shelter",
        "name": "Nahuja",
        "note": "1069",
        "source": "Association \"Refuges et cabanes des Pyrénées\""
      },
      "geometry": {
        "type": "Point",
        "coordinates": [
          2.014226,
          42.416772
        ]
      },
      "id": "node/963809607"
    },
    {
      "type": "Feature",
      "properties": {
        "@id": "node/963809628",
        "amenity": "shelter",
        "name": "Abri de Gaudu",
        "note": "993",
        "source": "Association \"Refuges et cabanes des Pyrénées\"",
        "url": "https://www.pyrenees-refuges.com/fr/affiche.php?numenr=993"
      },
      "geometry": {
        "type": "Point",
        "coordinates": [
          1.963333,
          42.65333
        ]
      },
      "id": "node/963809628"
    },
    {
      "type": "Feature",
      "properties": {
        "@id": "node/963809647",
        "amenity": "shelter",
        "name": "Cabane de la Soulas - Ustou",
        "note": "918",
        "source": "Association \"Refuges et cabanes des Pyrénées\""
      },
      "geometry": {
        "type": "Point",
        "coordinates": [
          1.1271132,
          42.8168567
        ]
      },
      "id": "node/963809647"
    },
    {
      "type": "Feature",
      "properties": {
        "@id": "node/963809815",
        "ele": "1690",
        "email": "info@santjoandelerm.com",
        "name": "la Basseta",
        "name:ca": "la Basseta",
        "operator": "E.M.D. Vila i Vall de Castellbó",
        "phone": "+34 973 29 81 24",
        "ref:FR:pyrenees_refuges": "847",
        "source": "Federació d'Entitats Excursionistes de Catalunya",
        "tourism": "alpine_hut",
        "website": "http://www.santjoandelerm.com/basseta.htm",
        "wikidata": "Q11945096",
        "wikipedia": "ca:Refugi de la Basseta"
      },
      "geometry": {
        "type": "Point",
        "coordinates": [
          1.2872878,
          42.4177194
        ]
      },
      "id": "node/963809815"
    },
    {
      "type": "Feature",
      "properties": {
        "@id": "node/963809915",
        "amenity": "shelter",
        "name": "Toue Casterie - val d azun",
        "note": "330"
      },
      "geometry": {
        "type": "Point",
        "coordinates": [
          -0.256575,
          42.833695
        ]
      },
      "id": "node/963809915"
    },
    {
      "type": "Feature",
      "properties": {
        "@id": "node/963809956",
        "amenity": "shelter",
        "name": "Cabane d Estarous",
        "ref:FR:pyrenees_refuges": "134",
        "shelter_type": "basic_hut"
      },
      "geometry": {
        "type": "Point",
        "coordinates": [
          -0.0292936,
          42.836538
        ]
      },
      "id": "node/963809956"
    },
    {
      "type": "Feature",
      "properties": {
        "@id": "node/963810263",
        "amenity": "shelter",
        "description": "Cabane pastorale fermée",
        "name": "Cabane de l'Estagnole",
        "note": "959",
        "source": "Association \"Refuges et cabanes des Pyrénées\""
      },
      "geometry": {
        "type": "Point",
        "coordinates": [
          1.7184755,
          42.8349281
        ]
      },
      "id": "node/963810263"
    },
    {
      "type": "Feature",
      "properties": {
        "@id": "node/963810396",
        "capacity": "2",
        "description": "2018-10 : 2 lits métalliques superposés et 2 matelas 1 cheminée",
        "ele": "1320",
        "fireplace": "yes",
        "name": "Abri forestier de Nagot",
        "ref:FR:pyrenees_refuges": "231",
        "ref:refuges.info": "6480",
        "source": "Association \"Refuges et cabanes des Pyrénées\"",
        "stove": "no",
        "tourism": "wilderness_hut"
      },
      "geometry": {
        "type": "Point",
        "coordinates": [
          1.5126596,
          42.7620642
        ]
      },
      "id": "node/963810396"
    },
    {
      "type": "Feature",
      "properties": {
        "@id": "node/963810439",
        "amenity": "shelter",
        "name": "Refugio de Bachimaña Alto",
        "name:ca": "Refugi de Bachimaña Alt",
        "name:es": "Refugio de Bachimaña Alto",
        "note": "874",
        "wikidata": "Q38577472",
        "wikipedia": "ca:Refugi de Bachimaña Alt"
      },
      "geometry": {
        "type": "Point",
        "coordinates": [
          -0.2211425,
          42.7890641
        ]
      },
      "id": "node/963810439"
    },
    {
      "type": "Feature",
      "properties": {
        "@id": "node/963810562",
        "amenity": "shelter",
        "name": "Cabane de Moune",
        "note": "730",
        "ref:refuges.info": "8212"
      },
      "geometry": {
        "type": "Point",
        "coordinates": [
          0.1447315,
          42.7859046
        ]
      },
      "id": "node/963810562"
    },
    {
      "type": "Feature",
      "properties": {
        "@id": "node/963810590",
        "amenity": "shelter",
        "name": "Cabane d'Ourrec",
        "ref:FR:pyrenees_refuges": "447",
        "ref:refuges.info": "8127",
        "shelter_type": "basic_hut"
      },
      "geometry": {
        "type": "Point",
        "coordinates": [
          0.0534984,
          42.9454197
        ]
      },
      "id": "node/963810590"
    },
    {
      "type": "Feature",
      "properties": {
        "@id": "node/963810696",
        "amenity": "shelter",
        "name": "Cabane des Aires",
        "note": "456"
      },
      "geometry": {
        "type": "Point",
        "coordinates": [
          0.113206,
          42.735677
        ]
      },
      "id": "node/963810696"
    },
    {
      "type": "Feature",
      "properties": {
        "@id": "node/963810780",
        "access": "yes",
        "amenity": "shelter",
        "capacity": "3",
        "fireplace": "yes",
        "name": "Cabane de Bendous - Vallee d Aspe",
        "name:oc": "Capana de Vendós - Vath d'Aspa",
        "ref:FR:pyrenees_refuges": "58",
        "shelter_type": "basic_hut",
        "source": "Bing",
        "source:name:oc": "Lo Congrès"
      },
      "geometry": {
        "type": "Point",
        "coordinates": [
          -0.5413764,
          42.8780207
        ]
      },
      "id": "node/963810780"
    },
    {
      "type": "Feature",
      "properties": {
        "@id": "node/963810812",
        "amenity": "shelter",
        "ele": "1730",
        "name": "Cabane d Aouet",
        "ref:FR:pyrenees_refuges": "434",
        "shelter_type": "basic_hut"
      },
      "geometry": {
        "type": "Point",
        "coordinates": [
          0.1261185,
          42.9645635
        ]
      },
      "id": "node/963810812"
    },
    {
      "type": "Feature",
      "properties": {
        "@id": "node/963810901",
        "alt_name": "Cabane d'Artigue det Mi,",
        "amenity": "shelter",
        "bench": "yes",
        "bin": "no",
        "capacity": "6",
        "description": "2013-08 : Cabane ouverte. Elle ferme bien même si je n'ai pas vérifié la présence de courants d'air. 2 matelas dans un état moyen. Trois bancs et une table. Pas de poêle ni d'outils ni de vaisselle.",
        "ele": "1310",
        "fireplace": "no",
        "lit": "no",
        "name": "Cabane de La Curadère",
        "ref:FR:pyrenees_refuges": "709",
        "ref:refuges.info": "3916",
        "shelter_type": "basic_hut",
        "stove": "no",
        "wheelchair": "no"
      },
      "geometry": {
        "type": "Point",
        "coordinates": [
          -0.1374534,
          42.966925
        ]
      },
      "id": "node/963810901"
    },
    {
      "type": "Feature",
      "properties": {
        "@id": "node/963810922",
        "amenity": "shelter",
        "name": "Abri Étang de La Carança",
        "note": "395",
        "source": "Association 'Refuges et Cabanes des Pyrénées'"
      },
      "geometry": {
        "type": "Point",
        "coordinates": [
          2.1966835,
          42.4310562
        ]
      },
      "id": "node/963810922"
    },
    {
      "type": "Feature",
      "properties": {
        "@id": "node/963810939",
        "amenity": "shelter",
        "name": "cabane de Banciole",
        "ref:FR:pyrenees_refuges": "962",
        "shelter_type": "basic_hut"
      },
      "geometry": {
        "type": "Point",
        "coordinates": [
          -0.1412567,
          42.9462271
        ]
      },
      "id": "node/963810939"
    },
    {
      "type": "Feature",
      "properties": {
        "@id": "node/963811050",
        "amenity": "shelter",
        "ele": "988",
        "name": "Toue de Larribet",
        "ref:FR:pyrenees_refuges": "988",
        "ref:refuges.info": "8104",
        "shelter_type": "basic_hut"
      },
      "geometry": {
        "type": "Point",
        "coordinates": [
          -0.2846398,
          42.865672
        ]
      },
      "id": "node/963811050"
    },
    {
      "type": "Feature",
      "properties": {
        "@id": "node/963811062",
        "amenity": "shelter",
        "name": "Cabane de La Grande Estibère",
        "ref:FR:pyrenees_refuges": "157",
        "shelter_type": "basic_hut"
      },
      "geometry": {
        "type": "Point",
        "coordinates": [
          0.0312426,
          42.936766
        ]
      },
      "id": "node/963811062"
    },
    {
      "type": "Feature",
      "properties": {
        "@id": "node/963811187",
        "amenity": "shelter",
        "name": "Cabane de Cujalate",
        "name:oc": "Cabana de Cujalata",
        "note": "999",
        "source": "Bing",
        "source:name:oc": "Lo Congrès"
      },
      "geometry": {
        "type": "Point",
        "coordinates": [
          -0.4893527,
          42.9449271
        ]
      },
      "id": "node/963811187"
    },
    {
      "type": "Feature",
      "properties": {
        "@id": "node/963811296",
        "amenity": "shelter",
        "name": "Cabane de Mourede",
        "note": "446"
      },
      "geometry": {
        "type": "Point",
        "coordinates": [
          0.0573661,
          42.934825
        ]
      },
      "id": "node/963811296"
    },
    {
      "type": "Feature",
      "properties": {
        "@id": "node/963811337",
        "amenity": "shelter",
        "ele": "2680",
        "name": "Cueva André Michaud",
        "name:es": "Cueva André Michaud",
        "name:fr": "Abri André Michaud",
        "note": "224",
        "ref:refuges.info": "8374"
      },
      "geometry": {
        "type": "Point",
        "coordinates": [
          -0.2968949,
          42.8376766
        ]
      },
      "id": "node/963811337"
    },
    {
      "type": "Feature",
      "properties": {
        "@id": "node/963811447",
        "amenity": "shelter",
        "ele": "1395",
        "name": "Cabane d Artigueluz",
        "note": "1050"
      },
      "geometry": {
        "type": "Point",
        "coordinates": [
          0.3375,
          42.9804574
        ]
      },
      "id": "node/963811447"
    },
    {
      "type": "Feature",
      "properties": {
        "@id": "node/963811487",
        "amenity": "shelter",
        "name": "Cabane de Pinardel - Vicdessos",
        "note": "896",
        "source": "Association \"Refuges et cabanes des Pyrénées\""
      },
      "geometry": {
        "type": "Point",
        "coordinates": [
          1.5712698,
          42.7243955
        ]
      },
      "id": "node/963811487"
    },
    {
      "type": "Feature",
      "properties": {
        "@id": "node/963811583",
        "amenity": "shelter",
        "name": "Cabane de Luzurs - castillonais",
        "ref": "339",
        "source": "Association \"Refuges et cabanes des Pyrénées\""
      },
      "geometry": {
        "type": "Point",
        "coordinates": [
          1.1119347,
          42.8457698
        ]
      },
      "id": "node/963811583"
    },
    {
      "type": "Feature",
      "properties": {
        "@id": "node/963811587",
        "amenity": "shelter",
        "name": "Refugio Hoya de la Solana",
        "note": "1040",
        "source": "survey, bing, memory"
      },
      "geometry": {
        "type": "Point",
        "coordinates": [
          -0.7569161,
          42.9121056
        ]
      },
      "id": "node/963811587"
    },
    {
      "type": "Feature",
      "properties": {
        "@id": "node/963811597",
        "amenity": "shelter",
        "name": "Orris des Legunes - ax les thermes",
        "note": "201\nVoute en partie effondrée",
        "source": "Association \"Refuges et cabanes des Pyrénées\""
      },
      "geometry": {
        "type": "Point",
        "coordinates": [
          1.3703387,
          42.7065306
        ]
      },
      "id": "node/963811597"
    },
    {
      "type": "Feature",
      "properties": {
        "@id": "node/963811916",
        "amenity": "shelter",
        "name": "Cabane Pastorale dels Forquets",
        "note": "388",
        "source": "Association \"Refuges et cabanes des Pyrénées\""
      },
      "geometry": {
        "type": "Point",
        "coordinates": [
          2.3964671,
          42.4355596
        ]
      },
      "id": "node/963811916"
    },
    {
      "type": "Feature",
      "properties": {
        "@id": "node/963811976",
        "amenity": "shelter",
        "name": "Cabanes de la Jasse de Peyriguels - ax les thermes",
        "note": "632",
        "source": "Association \"Refuges et cabanes des Pyrénées\""
      },
      "geometry": {
        "type": "Point",
        "coordinates": [
          1.5780119,
          42.7284065
        ]
      },
      "id": "node/963811976"
    },
    {
      "type": "Feature",
      "properties": {
        "@id": "node/963811986",
        "addr:postcode": "65240",
        "name": "Cabane Espigous",
        "opening_hours": "24/7",
        "ref:FR:pyrenees_refuges": "474",
        "tourism": "wilderness_hut"
      },
      "geometry": {
        "type": "Point",
        "coordinates": [
          0.2618233,
          42.8597911
        ]
      },
      "id": "node/963811986"
    },
    {
      "type": "Feature",
      "properties": {
        "@id": "node/963812026",
        "amenity": "shelter",
        "name": "Cabane de Mespelat - vicdessos",
        "note": "223",
        "shelter_type": "Pasorale_fermée",
        "source": "Association \"Refuges et cabanes des Pyrénées\""
      },
      "geometry": {
        "type": "Point",
        "coordinates": [
          1.3877837,
          42.7126813
        ]
      },
      "id": "node/963812026"
    },
    {
      "type": "Feature",
      "properties": {
        "@id": "node/963812070",
        "amenity": "shelter",
        "name": "Cabane d Ardio - ustou",
        "note": "715",
        "source": "Association \"Refuges et cabanes des Pyrénées\""
      },
      "geometry": {
        "type": "Point",
        "coordinates": [
          1.2284033,
          42.7786139
        ]
      },
      "id": "node/963812070"
    },
    {
      "type": "Feature",
      "properties": {
        "@id": "node/963812091",
        "amenity": "shelter",
        "name": "Cabane Llegunes-Gelat",
        "note": "1130",
        "source": "Association \"Refuges et cabanes des Pyrénées\""
      },
      "geometry": {
        "type": "Point",
        "coordinates": [
          1.7078,
          42.7311
        ]
      },
      "id": "node/963812091"
    },
    {
      "type": "Feature",
      "properties": {
        "@id": "node/963812278",
        "amenity": "shelter",
        "name": "Cabane Coumauzil - barguillere",
        "note": "596",
        "source": "Association \"Refuges et cabanes des Pyrénées\";GPS"
      },
      "geometry": {
        "type": "Point",
        "coordinates": [
          1.5059186,
          42.9501636
        ]
      },
      "id": "node/963812278"
    },
    {
      "type": "Feature",
      "properties": {
        "@id": "node/963812336",
        "amenity": "shelter",
        "name": "Cabane du Lac Bleu",
        "ref:FR:pyrenees_refuges": "188",
        "shelter_type": "basic_hut"
      },
      "geometry": {
        "type": "Point",
        "coordinates": [
          0.0824908,
          42.9402391
        ]
      },
      "id": "node/963812336"
    },
    {
      "type": "Feature",
      "properties": {
        "@id": "node/963812350",
        "amenity": "shelter",
        "ele": "1570",
        "name": "Toue de Doumblas",
        "ref:FR:pyrenees_refuges": "112",
        "ref:refuges.info": "8103",
        "shelter_type": "lean_to"
      },
      "geometry": {
        "type": "Point",
        "coordinates": [
          -0.2664677,
          42.8687472
        ]
      },
      "id": "node/963812350"
    },
    {
      "type": "Feature",
      "properties": {
        "@id": "node/963812382",
        "amenity": "shelter",
        "name": "Cabane Belcaire - vicdessos",
        "note": "410",
        "source": "Association \"Refuges et cabanes des Pyrénées\""
      },
      "geometry": {
        "type": "Point",
        "coordinates": [
          1.420726,
          42.72426
        ]
      },
      "id": "node/963812382"
    },
    {
      "type": "Feature",
      "properties": {
        "@id": "node/963812431",
        "amenity": "shelter",
        "name": "Cabane de Consaterre"
      },
      "geometry": {
        "type": "Point",
        "coordinates": [
          0.33046,
          42.76693
        ]
      },
      "id": "node/963812431"
    },
    {
      "type": "Feature",
      "properties": {
        "@id": "node/963812486",
        "amenity": "shelter",
        "name": "Cabane EDF de Badet",
        "ref:FR:pyrenees_refuges": "1140",
        "shelter_type": "basic_hut"
      },
      "geometry": {
        "type": "Point",
        "coordinates": [
          -0.0323221,
          42.8395705
        ]
      },
      "id": "node/963812486"
    },
    {
      "type": "Feature",
      "properties": {
        "@id": "node/963812514",
        "amenity": "shelter",
        "name": "Abri pastoral el Sola del Cavaller",
        "note": "1002",
        "source": "Association \"Refuges et cabanes des Pyrénées\""
      },
      "geometry": {
        "type": "Point",
        "coordinates": [
          1.892222,
          42.491389
        ]
      },
      "id": "node/963812514"
    },
    {
      "type": "Feature",
      "properties": {
        "@id": "node/963812524",
        "capacity": "2",
        "description": "2016-10 : Cabane assez salle mais équipée d'une cheminée, table, 2 bat-flancs superposés. Source en contrebas",
        "ele": "1390",
        "fireplace": "yes",
        "name": "Cabane de l'Homme Mort",
        "ref:FR:pyrenees_refuges": "165",
        "ref:refuges.info": "5668",
        "source": "Association \"Refuges et cabanes des Pyrénées\"",
        "stove": "no",
        "tourism": "wilderness_hut"
      },
      "geometry": {
        "type": "Point",
        "coordinates": [
          1.5229223,
          42.9163126
        ]
      },
      "id": "node/963812524"
    },
    {
      "type": "Feature",
      "properties": {
        "@id": "node/963812571",
        "amenity": "shelter",
        "name": "Cabane Pourcel",
        "note": "635",
        "source": "Association \"Refuges et cabanes des Pyrénées\""
      },
      "geometry": {
        "type": "Point",
        "coordinates": [
          1.636807,
          42.705416
        ]
      },
      "id": "node/963812571"
    },
    {
      "type": "Feature",
      "properties": {
        "@id": "node/963812598",
        "amenity": "shelter",
        "name": "Cabane Cortail de Prat",
        "note": "473"
      },
      "geometry": {
        "type": "Point",
        "coordinates": [
          0.2143491,
          42.773671
        ]
      },
      "id": "node/963812598"
    },
    {
      "type": "Feature",
      "properties": {
        "@id": "node/963812609",
        "amenity": "shelter",
        "name": "Cabane de Courtal Gelat",
        "note": "1123",
        "source": "Association \"Refuges et cabanes des Pyrénées\""
      },
      "geometry": {
        "type": "Point",
        "coordinates": [
          1.7151055,
          42.7260098
        ]
      },
      "id": "node/963812609"
    },
    {
      "type": "Feature",
      "properties": {
        "@id": "node/963812667",
        "amenity": "shelter",
        "ele": "2000",
        "fireplace": "yes",
        "name": "Cabane de Bonrepos - ustou",
        "note": "854"
      },
      "geometry": {
        "type": "Point",
        "coordinates": [
          1.2569622,
          42.7310033
        ]
      },
      "id": "node/963812667"
    },
    {
      "type": "Feature",
      "properties": {
        "@id": "node/963812712",
        "amenity": "shelter",
        "name": "Cabane du Plo-Deras Queros",
        "shelter_type": "basic_hut"
      },
      "geometry": {
        "type": "Point",
        "coordinates": [
          0.3227587,
          42.9828428
        ]
      },
      "id": "node/963812712"
    },
    {
      "type": "Feature",
      "properties": {
        "@id": "node/963812894",
        "amenity": "shelter",
        "name": "Cabane de Courtalis - Ustou",
        "note": "973",
        "source": "Association \"Refuges et cabanes des Pyrénées\""
      },
      "geometry": {
        "type": "Point",
        "coordinates": [
          1.2324028,
          42.7485412
        ]
      },
      "id": "node/963812894"
    },
    {
      "type": "Feature",
      "properties": {
        "@id": "node/968202879",
        "abandoned:building": "yes",
        "amenity": "shelter",
        "building": "ruins",
        "name": "Cabane des Clots de Dessous - Castillonais",
        "note": "572",
        "source": "Association \"Refuges et cabanes des Pyrénées\""
      },
      "geometry": {
        "type": "Point",
        "coordinates": [
          1.166098,
          42.725674
        ]
      },
      "id": "node/968202879"
    },
    {
      "type": "Feature",
      "properties": {
        "@id": "node/968202881",
        "amenity": "shelter",
        "name": "Cabane Bargueres de Campsaure - luchonais",
        "note": "496",
        "source": "Association \"Refuges et cabanes des Pyrénées\""
      },
      "geometry": {
        "type": "Point",
        "coordinates": [
          0.6396883,
          42.7416503
        ]
      },
      "id": "node/968202881"
    },
    {
      "type": "Feature",
      "properties": {
        "@id": "node/968202887",
        "amenity": "shelter",
        "name": "Cabane de Bargueres du Cecire - Luchonais",
        "note": "1025",
        "source": "Association \"Refuges et cabanes des Pyrénées\""
      },
      "geometry": {
        "type": "Point",
        "coordinates": [
          0.5312914,
          42.7692056
        ]
      },
      "id": "node/968202887"
    },
    {
      "type": "Feature",
      "properties": {
        "@id": "node/968202901",
        "amenity": "shelter",
        "name": "Cabane du Herran Hosce - luchonais",
        "note": "508",
        "source": "Association \"Refuges et cabanes des Pyrénées\""
      },
      "geometry": {
        "type": "Point",
        "coordinates": [
          0.6314078,
          42.7934647
        ]
      },
      "id": "node/968202901"
    },
    {
      "type": "Feature",
      "properties": {
        "@id": "node/968202923",
        "amenity": "shelter",
        "name": "Cabane Col de Bas",
        "note": "481",
        "source": "Association \"Refuges et cabanes des Pyrénées\""
      },
      "geometry": {
        "type": "Point",
        "coordinates": [
          0.4407106,
          42.9558852
        ]
      },
      "id": "node/968202923"
    },
    {
      "type": "Feature",
      "properties": {
        "@id": "node/968202925",
        "fireplace": "yes",
        "name": "Cabane du Pin - Barrousse",
        "ref:FR:pyrenees_refuges": "1027",
        "source": "Association \"Refuges et cabanes des Pyrénées\"",
        "tourism": "wilderness_hut"
      },
      "geometry": {
        "type": "Point",
        "coordinates": [
          0.4711089,
          42.9013072
        ]
      },
      "id": "node/968202925"
    },
    {
      "type": "Feature",
      "properties": {
        "@id": "node/968202933",
        "amenity": "shelter",
        "ele": "1908",
        "name": "Cabane de Boum Atech",
        "note": "1023",
        "source": "Association \"Refuges et cabanes des Pyrénées\""
      },
      "geometry": {
        "type": "Point",
        "coordinates": [
          0.4788414,
          42.7561142
        ]
      },
      "id": "node/968202933"
    },
    {
      "type": "Feature",
      "properties": {
        "@id": "node/968202938",
        "amenity": "shelter",
        "capacity": "4",
        "name": "Refuge de Caillauas",
        "ref:FR:pyrenees_refuges": "702",
        "shelter_type": "basic_hut"
      },
      "geometry": {
        "type": "Point",
        "coordinates": [
          0.4422567,
          42.7209835
        ]
      },
      "id": "node/968202938"
    },
    {
      "type": "Feature",
      "properties": {
        "@id": "node/968202953",
        "amenity": "shelter",
        "name": "Refuge forestier du Cualot - Luchonais",
        "note": "1039",
        "source": "Association \"Refuges et cabanes des Pyrénées\""
      },
      "geometry": {
        "type": "Point",
        "coordinates": [
          0.654167,
          42.816944
        ]
      },
      "id": "node/968202953"
    },
    {
      "type": "Feature",
      "properties": {
        "@id": "node/968202981",
        "amenity": "shelter",
        "name": "Cabane de Coume Herrere",
        "note": "1045",
        "source": "Association \"Refuges et cabanes des Pyrénées\""
      },
      "geometry": {
        "type": "Point",
        "coordinates": [
          0.5176535,
          42.8268952
        ]
      },
      "id": "node/968202981"
    },
    {
      "type": "Feature",
      "properties": {
        "@id": "node/968202987",
        "amenity": "shelter",
        "name": "Cabane Cap de la Coume - barousse",
        "note": "480",
        "source": "Association \"Refuges et cabanes des Pyrénées\""
      },
      "geometry": {
        "type": "Point",
        "coordinates": [
          0.5630965,
          42.841492
        ]
      },
      "id": "node/968202987"
    },
    {
      "type": "Feature",
      "properties": {
        "@id": "node/968202992",
        "amenity": "shelter",
        "name": "Abri Esbas - luchonais",
        "note": "503",
        "source": "Association \"Refuges et cabanes des Pyrénées\""
      },
      "geometry": {
        "type": "Point",
        "coordinates": [
          0.613216,
          42.724094
        ]
      },
      "id": "node/968202992"
    },
    {
      "type": "Feature",
      "properties": {
        "@id": "node/968203070",
        "amenity": "shelter",
        "name": "Vivac del lago de Cregüeña",
        "name:fr": "Abris du Lac de Cregüeña",
        "note": "764",
        "shelter_type": "rock_shelter",
        "source": "Association \"Refuges et cabanes des Pyrénées\""
      },
      "geometry": {
        "type": "Point",
        "coordinates": [
          0.6193704,
          42.6408523
        ]
      },
      "id": "node/968203070"
    },